[
  { "name": "ANG MO KIO", "lat": 1.3691, "lng": 103.8454 },
  { "name": "BEDOK", "lat": 1.3267, "lng": 103.9280 },
  { "name": "BISHAN", "lat": 1.3509, "lng": 103.8485 },
  { "name": "BUKIT BATOK", "lat": 1.3500, "lng": 103.7500 },
  { "name": "BUKIT MERAH", "lat": 1.2823, "lng": 103.8238 },
  { "name": "BUKIT PANJANG", "lat": 1.3787, "lng": 103.7623 },
  { "name": "BUKIT TIMAH", "lat": 1.3294, "lng": 103.8021 },
  { "name": "CENTRAL AREA", "lat": 1.2903, "lng": 103.8519 },
  { "name": "CHOA CHU KANG", "lat": 1.3854, "lng": 103.7445 },
  { "name": "CLEMENTI", "lat": 1.3151, "lng": 103.7643 },
  { "name": "GEYLANG", "lat": 1.3195, "lng": 103.8870 },
  { "name": "HOUGANG", "lat": 1.3705, "lng": 103.8921 },
  { "name": "JURONG EAST", "lat": 1.3327, "lng": 103.7436 },
  { "name": "JURONG WEST", "lat": 1.3403, "lng": 103.7090 },
  { "name": "KALLANG/WHAMPOA", "lat": 1.3138, "lng": 103.8623 },
  { "name": "MARINE PARADE", "lat": 1.3020, "lng": 103.9050 },
  { "name": "PASIR RIS", "lat": 1.3731, "lng": 103.9496 },
  { "name": "PUNGGOL", "lat": 1.4053, "lng": 103.9020 },
  { "name": "QUEENSTOWN", "lat": 1.2941, "lng": 103.7870 },
  { "name": "SEMBAWANG", "lat": 1.4491, "lng": 103.8185 },
  { "name": "SENGKANG", "lat": 1.3917, "lng": 103.8952 },
  { "name": "SERANGOON", "lat": 1.3526, "lng": 103.8653 },
  { "name": "TAMPINES", "lat": 1.3530, "lng": 103.9450 },
  { "name": "TOA PAYOH", "lat": 1.3361, "lng": 103.8499 },
  { "name": "WOODLANDS", "lat": 1.4360, "lng": 103.7865 },
  { "name": "YISHUN", "lat": 1.4297, "lng": 103.8355 }
]
